<?xml version="1.0" encoding="utf-8" ?>
<items>
<row id="29352" title="St Mary Scottish Episcopal Church" town="Stromness" dist="0" latlon="58.9649,-3.2995" full="0" />
<row id="29647" title="Stromness Baptist Church" town="Stromness" dist="0" latlon="58.9649,-3.2995" full="0" />
<row id="22948" title="Orkney Christian Fellowship" town="Stromness" dist="0" latlon="58.9649,-3.2995" full="0" />
<row id="53370" title="Hoy Church" town="Hoy" dist="0" latlon="58.9112,-3.3283" full="0" />
<row id="11749" title="Orphir Church" town="Swanbister" dist="0" latlon="58.9355,-3.1463" full="0" />
<row id="29355" title="Earl&#39;s Bu Church" town="Swanbister" dist="0" latlon="58.9355,-3.1463" full="0" />
<row id="48541" title="Harray Gospel Hall" town="Bimbister" dist="0" latlon="59.0323,-3.1772" full="0" />
<row id="29356" title="Evie Church" town="Finstown" dist="0" latlon="59.0082,-3.1238" full="0" />
<row id="29354" title="United Free Church of Scotland" town="Dounby" dist="0" latlon="59.0702,-3.2343" full="0" />
<row id="53393" title="St Michael&#39;s Church, Harray" town="Isbister (Orkney Islands)a" dist="0" latlon="59.0846,-3.2963" full="0" />
<row id="29359" title="Christian Brethren" town="Kirkwall" dist="0" latlon="58.9733,-2.9634" full="0" />
<row id="51136" title="Kirkwall Congregational Church" town="Kirkwall" dist="0" latlon="58.9733,-2.9634" full="0" />
<row id="29361" title="St Olaf Scottish Episcopal Church" town="Kirkwall" dist="0" latlon="58.9733,-2.9634" full="0" />
<row id="11755" title="The Salvation Army Kirkwall Corps" town="Kirkwall" dist="0" latlon="58.979,-2.9635" full="0" />
<row id="11754" title="Our Lady &amp; St Joseph&#39;s" town="Kirkwall" dist="0" latlon="58.9782,-2.9622" full="0" />
<row id="11752" title="Kirkwall Baptist Church" town="Kirkwall" dist="0" latlon="58.9788,-2.9615" full="1" logo="11752-logo.jpg" />
<row id="11756" title="St Magnus Cathedral" town="Kirkwall" dist="0" latlon="58.9821,-2.9598" full="0" />
<row id="11751" title="House Church (Kirkwall)" town="Kirkwall" dist="0" latlon="58.9831,-2.9589" full="0" />
<row id="29360" title="Kirkwall United Reformed Church" town="Kirkwall" dist="0" latlon="58.9807,-2.9582" full="0" />
<row id="53387" title="East Church" town="Kirkwall" dist="0" latlon="58.9824,-2.9568" full="0" />
<row id="11753" title="Meadows Gospel Hall" town="Kirkwall" dist="0" latlon="58.9801,-2.9536" full="0" />
<row id="11750" title="Christian Growth Centre Orkney" town="Kirkwall" dist="0" latlon="58.985,-2.9488" full="0" />
<row id="53386" title="East Mainland Church" town="St Mary&#39;s" dist="0" latlon="58.8967,-2.9092" full="0" />
<row id="29357" title="Italian Chapel" town="St Mary&#39;s" dist="0" latlon="58.8967,-2.9092" full="0" />
<row id="29358" title="St Mary" town="St Mary&#39;s" dist="0" latlon="58.8967,-2.9092" full="0" />
</items>
